[{"images": "/img/shop/ubcc.pd.point/1/logo_shops/64x64", "domain": "tnx.ubcc.io", "description": "Thang nh\u00f4m x\u1ebfp", "title": "Vannam Trading co.,Ltd", "lat": "10.7795835 ", "lng": "106.64823909999996 ", "address": "102 Tr\u1ea7n V\u0103n Quang, H\u1ed3 Ch\u00ed Minh, Vi\u1ec7t Nam", "id": 1}, {"images": "/img/shop/ubcc.pd.point/2/logo_shops/64x64", "domain": "bds.ubcc.io", "description": "mua ba\u0301n cho thu\u00ea b\u00e2\u0301t \u0111\u00f4\u0323ng sa\u0309n", "title": "b\u00e2\u0301t \u0111\u00f4\u0323ng sa\u0309n toa\u0300n qu\u00f4\u0301c", "lat": "10.774427 ", "lng": "106.63149399999997 ", "address": "18 L\u01b0\u01a1ng Tr\u00fac \u0110\u00e0m, Ho Chi Minh City, Ho Chi Minh, Vietnam", "id": 2}, {"images": "/img/shop/ubcc.pd.point/4/logo_shops/64x64", "domain": "lamhang.ubcc.io", "description": "\u0110\u1ebeN V\u1edaI CH\u00daNG T\u00d4I B\u1ea0N S\u1ebc \u0110\u01af\u1ee2C T\u1ef0 DO QUY\u1ebeT \u0110\u1ecaNH TH\u1edcI GIAN L\u00c0M VI\u1ec6C.B\u1ea0N T\u1ef0 QUY\u1ebeT DO QUY\u1ebeT \u0110\u1ecaNH M\u00ccNH MU\u1ed0N KI\u1ebeM TH\u00caM BAO NHI", "title": "TRUNG T\u00c2M GI\u1edaI THI\u1ec6U VI\u1ec6C L\u00c0M", "lat": "10.8011208 ", "lng": "106.64568359999998 ", "address": "45 \u0110\u1ed3ng Xo\u00e0i, T\u00e2n B\u00ecnh, H\u1ed3 Ch\u00ed Minh, Vi\u1ec7t Nam", "id": 4}, {"images": "/img/shop/ubcc.pd.point/5/logo_shops/64x64", "domain": "bapmy.ubcc.io", "description": "mua ban tu van va cham soc suc khoe", "title": "tu van va cham soc suc khoe", "lat": "10.8409821", "lng": "106.76759629999992", "address": "2 L\u00ea Qu\u00fd \u0110\u00f4n, Ho Chi Minh City, Th\u1ee7 \u0110\u1ee9c, Ho Chi Minh, Vietnam", "id": 5}, {"images": "/img/shop/ubcc.pd.point/6/logo_shops/64x64", "domain": "muabanonline.ubcc.io", "description": "CUNG C\u1ea4P T\u1ea4T C\u1ea2 C\u00c1C M\u1eb6T H\u00c0NG L\u01af\u01a0NG TH\u1ef0C,TH\u1ef0C PH\u1ea8M.\u0110\u1ed2 GIA D\u1ee4NG VV....li\u00ean h\u1ec7: 0913 737 482", "title": "B\u00c1CH HO\u00c1 T\u1ed4NG H\u1ee2P UBCC", "lat": "10.7453308", "lng": "106.64762429999996", "address": "162 \u0110\u01b0\u1eddng Ph\u1ea1m V\u0103n Ch\u00ed, ph\u01b0\u1eddng 4, Ho Chi Minh, Vietnam", "id": 6}, {"images": "/img/shop/ubcc.pd.point/7/logo_shops/64x64", "domain": "phucuong.ubcc.io", "description": "B\u00ca THUI PHU\u0301 C\u01af\u01a0\u0300NG la\u0300 b\u00ea \u0111\u0103\u0323c sa\u0309n n\u00f4\u0309i ti\u00ea\u0301ng cu\u0309a T\u00e2y Ninh kh\u00f4ng nh\u01b0\u0303ng \u0103n ngon mang gia\u0301 tri\u0323 dinh d\u01b0\u01a1\u0303ng cao", "title": "B\u00ca THUI PHU\u0301 C\u01af\u01a0\u0300NG", "lat": "10.8797948 ", "lng": "106.63572249999993 ", "address": "351 Nguy\u1ec5n \u1ea2nh Th\u1ee7, ph\u01b0\u1eddng Hi\u1ec7p Th\u00e0nh, H\u1ed3 Ch\u00ed Minh, Vi\u1ec7t Nam", "id": 7}, {"images": "/img/shop/ubcc.pd.point/9/logo_shops/64x64", "domain": "suckhoe.ubcc.io", "description": "T\u01b0 v\u1ea5n s\u1ee9c kho\u1ebb mi\u1ec5n ph\u00ed", "title": "T\u01b0 V\u1ea5n S\u1ee9c Kho\u1ebb", "lat": "10.7719839", "lng": "106.70439120000003", "address": "T\u00f2a nh\u00e0 t\u00e0i ch\u00ednh Bitexco, H\u1ea3i Tri\u1ec1u, B\u1ebfn Ngh\u00e9, H\u1ed3 Ch\u00ed Minh, Vi\u1ec7t Nam", "id": 9}, {"images": "/img/shop/ubcc.pd.point/10/logo_shops/64x64", "domain": "odoo.ubcc.io", "description": "CH\u00daNG T\u00d4I CHUY\u00caN THI\u1ebeT K\u1ebe C\u00c1C M\u1ea8U WEDSITE CAFE TR\u00caN TO\u00c0N QU\u1ed0C. li\u00ean h\u1ec7: 0971 807 479", "title": "COFFEE UBCC", "lat": "10.9399403", "lng": "106.63502500000004", "address": "B\u00ecnh M\u1ef9, C\u1ee7 Chi, Ho Chi Minh, Vietnam", "id": 10}, {"images": "/img/shop/ubcc.pd.point/11/logo_shops/64x64", "domain": "Son.ubcc.io", "description": "Chuyen san xuat cua nhom kinh thi cong cac cong trinh", "title": "Thanhson", "lat": "10.789302 ", "lng": "106.64612499999998 ", "address": "27/12 Phan S\u00e0o Nam, H\u1ed3 Ch\u00ed Minh, Vi\u1ec7t Nam dt 0934136561", "id": 11}, {"images": "/img/shop/ubcc.pd.point/13/logo_shops/64x64", "domain": "kiemtienonline-ubcc-io.ubcc.io", "description": "B\u1ea0N MU\u1ed0N KI\u1ebeM TH\u00caM THU NH\u1eacP T\u1ea0I NH\u00c0. B\u1ea0N MU\u1ed0N KI\u1ebeM TI\u1ec0N V\u1edaI S\u1ed0 V\u1ed0N NH\u1ece C\u1ee6A M\u00ccNH.? CH\u00daNG T\u00d4I S\u1ebc GI\u00daP B\u1ea0N.!", "title": "T\u01af V\u1ea4N KI\u1ebeM TI\u1ec0N T\u1ea0I NH\u00c0", "lat": "16.0544068 ", "lng": "108.20216670000002 ", "address": "Th\u00e0nh ph\u1ed1 \u0110\u00e0 N\u1eb5ng, \u0110\u00e0 N\u1eb5ng, Vi\u1ec7t Nam", "id": 13}, {"images": "/img/shop/ubcc.pd.point/17/logo_shops/64x64", "domain": "st365.ubcc.io", "description": "Ca si S.T 365", "title": "S.T Pinky Boy", "lat": "10.80243 ", "lng": "106.71155699999997 ", "address": "220/9 X\u00f4 Vi\u1ebft Ngh\u1ec7 T\u0129nh, P.21, Q. B\u00ecnh Th\u1ea1nh, H\u1ed3 Ch\u00ed Minh, Vi\u1ec7t Nam", "id": 17}, {"images": "/img/shop/ubcc.pd.point/20/logo_shops/64x64", "domain": "salemax.ubcc.io", "description": "Cung c\u1ea5p h\u00e0ng h\u00f3a linh ki\u1ec7n \u0111i\u1ec7n t\u1eed hot tr\u00ean th\u1ecb tr\u01b0\u1eddng, giao h\u00e0ng c\u1ea3 n\u01b0\u1edbc qua nhi\u1ec1u h\u00ecnh th\u1ee9c.", "title": "salemaxvn", "lat": "10.787803", "lng": "106.63911299999995", "address": "9 T\u00e2n Th\u00e0nh, Ph\u01b0\u1eddng T\u00e2n Th\u00e0nh, Ho Chi Minh City, qu\u1eadn T\u00e2n Ph\u00fa, Ho Chi Minh, Vietnam", "id": 20}, {"images": "/img/shop/ubcc.pd.point/24/logo_shops/64x64", "domain": "kodomoshop-vn.ubcc.io", "description": "KODOMO Th\u1ef1c Ph\u1ea9m Cho B\u00e9 T\u1eeb Nh\u1eadt\r\n\r\nKODOMO chuy\u00ean cung c\u1ea5p \u0111\u1ed3 \u0103n dinh d\u01b0\u1ee1ng v\u00e0 d\u1ee5ng c\u1ee5 ch\u0103m s\u00f3c s\u1ee9c kho\u1ebb cho b\u00e9 t\u1eeb Nh\u1eadt B\u1ea3n", "title": "KODOMOSHOP", "lat": "10.740911016165418", "lng": "106.69877886772156", "address": "S\u1ed1 46, Khu \u0111\u00f4 th\u1ecb Him Lam, T\u00e2n H\u01b0ng, Qu\u1eadn 7, H\u1ed3 Ch\u00ed Minh, Vi\u1ec7t Nam", "id": 24}, {"images": "/img/shop/ubcc.pd.point/26/logo_shops/64x64", "domain": "https-www-facebook-com-ndhalit.ubcc.io", "description": "Chuy\u00ean cung c\u1ea5p s\u1ec9 l\u1ebb c\u00e1c lo\u1ea1i \u0111\u00e1 mu\u1ed1i hymalaya (b\u1ed9t, vi\u00ean nh\u1ecf, b\u00e0n \u0111\u1ec3 ch\u00e2n, gi\u01b0\u1eddng, kh\u1ed1i th\u00f4.... t\u1ea1o h\u00ecnh theo y\u00eau c\u1ea7u", "title": "ND Halit", "lat": "10.78551", "lng": "106.64092499999992", "address": "4B Tho\u1ea1i Ng\u1ecdc H\u1ea7u, Ho Chi Minh City, Ho Chi Minh, Vietnam", "id": 26}, {"images": "/img/shop/ubcc.pd.point/35/logo_shops/64x64", "domain": "Hoa.ubcc.io", "description": "Chuyen kinh doanh thoi trang", "title": "Hoa son", "lat": "10.8031477 ", "lng": "106.69264410000005 ", "address": "15 Phan \u0110\u0103ng L\u01b0u, ph\u01b0\u1eddng 1, Ho Chi Minh, Vietnam", "id": 35}, {"images": "/img/shop/ubcc.pd.point/38/logo_shops/64x64", "domain": "hieu.ubcc.io", "description": "\u0110\u1ea7u t\u01b0 t\u00e0i ch\u00ednh th\u00f4ng minh\r\nLi\u00ean h\u1ec7: 01262699990 hieu", "title": "Davidhieu", "lat": "10.78638 ", "lng": "106.66432699999996 ", "address": "90/10 B\u1eafc H\u1ea3i, Ph\u01b0\u1eddng 15, H\u1ed3 Ch\u00ed Minh, Vi\u1ec7t Nam", "id": 38}, {"images": "/img/shop/ubcc.pd.point/41/logo_shops/64x64", "domain": "damuoi.ubcc.io", "description": "Chuy\u00ean cung c\u1ea5p s\u0129 \u0110\u00e1 Mu\u1ed1i nguy\u00ean ch\u1ea5t Himalaya nh\u1ea5p t\u1eeb Pakictan", "title": "\u0110\u00e1 Mu\u1ed1i Himalaya", "lat": "10.762873", "lng": "106.64758600000005", "address": "25 \u0110\u01b0\u1eddng s\u1ed1 7A, ph\u01b0\u1eddng 8, Qu\u1eadn 11, H\u1ed3 Ch\u00ed Minh, Vi\u1ec7t Nam", "id": 41}, {"images": "/img/shop/ubcc.pd.point/43/logo_shops/64x64", "domain": "amthucviet.ubcc.io", "description": "Chuy\u00ean ph\u1ee5c v\u1ee5 c\u00e1c m\u00f3n b\u00f2 n\u00e9.", "title": "bo ne 3 ngon", "lat": "10.828405946317867 ", "lng": "106.68523907661438 ", "address": "C22 Phan V\u0103n Tr\u1ecb ,Ph\u01b0\u1eddng 7, Qu\u1eadn G\u00f2 V\u1ea5p, TP.HCM, Vi\u1ec7t Nam.", "id": 43}, {"images": "/img/shop/ubcc.pd.point/45/logo_shops/64x64", "domain": "casino.ubcc.io", "description": "Vui ch\u01a1i gi\u1ea3i tr\u00ed", "title": "CASINO", "lat": "22.2055006 ", "lng": "113.55764299999998 ", "address": "Av. do Dr. Francisco Vieira Machado, Ma Cao", "id": 45}, {"images": "/img/shop/ubcc.pd.point/48/logo_shops/64x64", "domain": "xanhsach.ubcc.io", "description": "cung c\u00e2\u0301p sa\u0309n ph\u00e2\u0309m xanh sa\u0323ch \u0111e\u0323p", "title": "xanhsa\u0323ch\u0111e\u0323p", "lat": "10.776959 ", "lng": "106.63115300000004 ", "address": "50 Th\u1ea1ch Lam, Ho Chi Minh City, Ho Chi Minh, Vietnam", "id": 48}, {"images": "/img/shop/ubcc.pd.point/54/logo_shops/64x64", "domain": "main.ubcc.io", "description": "ban hang online 1", "title": "website ban le", "lat": "10.763327971683047 ", "lng": "106.63639068603516 ", "address": "ph\u01b0\u1eddng 3, Qu\u1eadn 11, H\u1ed3 Ch\u00ed Minh, Vietnam", "id": 54}, {"images": "/img/shop/ubcc.pd.point/55/logo_shops/64x64", "domain": "thinh.ubcc.io", "description": "chuyen cung cap si le do lot nam nu", "title": "May khang thinh", "lat": "10.8027192 ", "lng": "106.6285418 ", "address": "451/22 T\u00e2n K\u1ef3 T\u00e2n Qu\u00fd, H\u1ed3 Ch\u00ed Minh, qu\u1eadn T\u00e2n Ph\u00fa, Vi\u1ec7t Nam dt 01697192473", "id": 55}, {"images": "/img/shop/ubcc.pd.point/58/logo_shops/64x64", "domain": "anhkhoa.ubcc.io", "description": "Cung c\u1ea5p v\u00e0 s\u1eeda ch\u1eefa thi\u1ebft b\u1ecb v\u0103n ph\u00f2ng", "title": "C\u00d4NG TY C\u1ed4 PH\u1ea6N TH\u01af\u01a0NG M\u1ea0I D\u1ecaCH V\u1ee4 V\u00c0 AN NINH M\u1ea0NG A15", "lat": "10.7905618 ", "lng": "106.63535360000003 ", "address": "294/137B X\u00f4 Vi\u1ebft Ngh\u1ec7 T\u0129nh, Ph\u01b0\u1eddng 21, Qu\u1eadn B\u00ecnh Th\u1ea1nh, Th\u00e0nh ph\u1ed1 H\u1ed3 Ch\u00ed Minh", "id": 58}, {"images": "/img/shop/ubcc.pd.point/61/logo_shops/64x64", "domain": "ngansg68.ubcc.io", "description": "chuy\u00ean t\u01b0 v\u1ea5n v\u00e0 cung c\u1ea5p c\u00e1c s\u1ea3n ph\u1ea9m \u0111\u00f4ng t\u00e2y y ch\u0103m s\u00f3c s\u1ee9c kh\u1ecfe ch\u1ee7 \u0111\u1ed9ng gi\u00fap vui tr\u1ebb kh\u1ecfe \u0111\u1eb9p th\u00eam m\u1edbi nh\u1ea5t", "title": "shop vui tre khoe dep moi ngay", "lat": "10.763876 ", "lng": "106.696011 ", "address": "63 C\u00f4 Giang, ph\u01b0\u1eddng C\u1ea7u \u00d4ng L\u00e3nh, H\u1ed3 Ch\u00ed Minh, Qu\u1eadn 1, Vi\u1ec7t Nam", "id": 61}, {"images": "/img/shop/ubcc.pd.point/62/logo_shops/64x64", "domain": "suckhoelamdep.ubcc.io", "description": "CH\u00daNG T\u00d4I CHUY\u00caN T\u01af V\u1ea4N V\u1ec0 C\u00c1CH CH\u0102M S\u00d3C S\u1ee8C KHO\u1eba V\u00c0 L\u00c0M \u0110\u1eb8P CHO T\u1ea4T C\u1ea2 M\u1eccI L\u1ee8A TU\u1ed4I TR\u00caN TO\u00c0N QU\u1ed0C", "title": "TRUNG T\u00c2M T\u01af V\u1ea4N S\u1ee8C KHO\u1eba V\u00c0 L\u00c0M \u0110\u1eb8P", "lat": "11.5499768", "lng": "107.80216369999994", "address": "58 Nguy\u1ec5n B\u1ec9nh Khi\u00eam, B\u1ea3o L\u1ed9c, L\u00e2m \u0110\u1ed3ng, Vietnam", "id": 62}, {"images": "/img/shop/ubcc.pd.point/65/logo_shops/64x64", "domain": "ngoaihoi.ubcc.io", "description": "dau tu ngoai hoi", "title": "ngoaihoi", "lat": "10.86162", "lng": "106.611087", "address": "124/1c Nguy\u1ec5n \u1ea2nh Th\u1ee7, Ho Chi Minh City, Ho Chi Minh, Vietnam", "id": 65}, {"images": "/img/shop/ubcc.pd.point/68/logo_shops/64x64", "domain": "mimikara.ubcc.io", "description": "karaokemimi", "title": "karaokemimi", "lat": "10.7717626 ", "lng": "106.67058689999999 ", "address": "91 Tr\u1ea7n Thi\u1ec7n Ch\u00e1nh, Ph\u01b0\u1eddng 12, H\u1ed3 Ch\u00ed Minh, Vi\u1ec7t Nam", "id": 68}, {"images": "/img/shop/ubcc.pd.point/70/logo_shops/64x64", "domain": "khoedep.ubcc.io", "description": "VITAL", "title": "bachliensg65", "lat": "10.8391429 ", "lng": "106.67959710000002 ", "address": "7/119 L\u00ea \u0110\u1ee9c Th\u1ecd, ph\u01b0\u1eddng 15, H\u1ed3 Ch\u00ed Minh, qu\u1eadn G\u00f2 V\u1ea5p, Vi\u1ec7t Nam", "id": 70}, {"images": "/img/shop/ubcc.pd.point/71/logo_shops/64x64", "domain": "suanon.ubcc.io", "description": "sua non Newzelen", "title": "suanon", "lat": "10.79578 ", "lng": "106.62826399999994 ", "address": "20/4 G\u00f2 D\u1ea7u, T\u00e2n S\u01a1n Nh\u00ec, H\u1ed3 Ch\u00ed Minh, Vi\u1ec7t Nam", "id": 71}, {"images": "/img/shop/ubcc.pd.point/74/logo_shops/64x64", "domain": "mimi.ubcc.io", "description": "Mi\u1ec5n ph\u00ed 2 ti\u1ebfng ti\u1ec1n gi\u1edd", "title": "Karaoke MiMi", "lat": "10.79014075032174 ", "lng": "106.34765625 ", "address": "18A L\u00ea \u0110\u00ecnh C\u1ea9n, P. B\u00ecnh Tr\u1ecb \u0110\u00f4ng A, B\u00ecnh T\u00e2n", "id": 74}, {"images": "/img/shop/ubcc.pd.point/75/logo_shops/64x64", "domain": "karaoke.ubcc.io", "description": "Gi\u1ea3m gi\u00e1 30% gi\u1edd h\u00e1t t\u1eeb th\u1ee9 2 \u0111\u1ebfn th\u1ee9 6", "title": "Karaoke MiMi Th\u00e0nh Th\u00e1i", "lat": "10.7740872 ", "lng": "106.66448250000008 ", "address": "120 Th\u00e0nh Th\u00e1i, Ph\u01b0\u1eddng 12, S\u00e0i G\u00f2n, Qu\u1eadn 10, H\u1ed3 Ch\u00ed Minh, Vi\u1ec7t Nam", "id": 75}, {"images": "/img/shop/ubcc.pd.point/76/logo_shops/64x64", "domain": "Phuong.ubcc.io", "description": "Ban cac loai my pham cao cap", "title": "Loanphuong", "lat": "10.788591492065056", "lng": "106.64510250091553", "address": "ph\u01b0\u1eddng 11, T\u00e2n B\u00ecnh, H\u1ed3 Ch\u00ed Minh, Vi\u1ec7t Nam", "id": 76}, {"images": "/img/shop/ubcc.pd.point/78/logo_shops/64x64", "domain": "tourphuquoc.ubcc.io", "description": "Chuy\u00ean t\u1ed5 ch\u1ee9c tour du l\u1ecbch ph\u00fa qu\u1ed1c, \u0111\u1eb7t ph\u00f2ng, cung c\u1ea5p xe du l\u1ecbch t\u1eeb 4 \u0111\u1ebfn 45 ch\u1ed7", "title": "C\u00f4ng ty chuy\u00ean tour ph\u00fa qu\u1ed1c", "lat": "10.205740007490093 ", "lng": "103.97735595703125 ", "address": "38 ho\u00e0ng v\u0103n th\u1ee5 , khu ph\u1ed1 5, d\u01b0\u01a1ng \u0111\u00f4ng, ph\u00fa qu\u1ed1c, ki\u00ean giang", "id": 78}, {"images": "/img/shop/ubcc.pd.point/79/logo_shops/64x64", "domain": "dichvu.ubcc.io", "description": "Chuy\u00ean SX , GC c\u1eeda nh\u00f4m Xingfa, c\u1eeda nh\u1ef1a , k\u00ednh CL , k\u00ednh m\u00e0u trang tr\u00ed, trang s\u1ee9c, t\u00fai ch\u01b0\u1eddm th\u1ea3o d\u01b0\u1ee3c , cho thu\u00ea xe", "title": "Nhom K\u00ednh HO\u00c0NG PH\u00c1T", "lat": "10.7845091", "lng": "106.6421719", "address": "985/19 \u00c2u C\u01a1, ph\u01b0\u1eddng T\u00e2n S\u01a1n Nh\u00ec, Ho Chi Minh, qu\u1eadn T\u00e2n Ph\u00fa, Vietnam", "id": 79}, {"images": "/img/shop/ubcc.pd.point/80/logo_shops/64x64", "domain": "huongdan.ubcc.io", "description": "ubccguie", "title": "huongdanubcc", "lat": "10.7814219 ", "lng": "106.63206300000002 ", "address": "56 Nguy\u1ec5n S\u01a1n, H\u1ed3 Ch\u00ed Minh, Vi\u1ec7t Nam", "id": 80}, {"images": "/img/shop/ubcc.pd.point/81/logo_shops/64x64", "domain": "seo.ubcc.io", "description": "TRANH S\u01a0N D\u1ea6U GI\u00c1 R\u1eba, CHUY\u00caN CUNG C\u1ea4P TRANH S\u01a0N D\u1ea6U S\u1ec8 & L\u1eba", "title": "TRANH S\u01a0N D\u1ea6U GI\u00c1 R\u1eba", "lat": "10.8021 ", "lng": "106.64381700000001 ", "address": "19 C\u1ed9ng H\u00f2a, Ho Chi Minh City, Ho Chi Minh, Vietnam", "id": 81}, {"images": "/img/shop/ubcc.pd.point/82/logo_shops/64x64", "domain": "minhtri.ubcc.io", "description": "Nh\u00e0 h\u00e0ng Nh\u1eadt", "title": "Sushi C\u01b0\u1eddi", "lat": "10.751090686463547", "lng": "106.65042400360107", "address": "GA HKXB CH\u1ee2 L\u1edaN B L\u00ea Quang Sung, Vietnam", "id": 82}, {"images": "/img/shop/ubcc.pd.point/83/logo_shops/64x64", "domain": "vang-nu-trang-karatbars.ubcc.io", "description": "V\u00e0ng n\u1eef trang Karatbars", "title": "Karatbars", "lat": "10.774452824388463", "lng": "106.6644224524498", "address": "120 Th\u00e0nh Th\u00e1i, H\u1ed3 Ch\u00ed Minh, Vi\u1ec7t Nam", "id": 83}, {"images": "/img/shop/ubcc.pd.point/85/logo_shops/64x64", "domain": "Baoviet.ubcc.io", "description": "Bao viet nhan tho la cty phat hanh hop dong bao hiem nhan tho dau tien tai viet nam", "title": "Bao viet nhan tho sai gon", "lat": "10.783395622088614 ", "lng": "106.70368194580078 ", "address": "Toa nha trung tam tai chinh bao viet 233 dong khoi quan 1 tp.hcm dt 0909286881", "id": 85}, {"images": "/img/shop/ubcc.pd.point/86/logo_shops/64x64", "domain": "mizuna.ubcc.io", "description": "Chuy\u00ean cung c\u1ea5p s\u0129 v\u00e0 l\u1ebd c\u00e1c m\u1eb7t h\u00e0ng nh\u1eadp kh\u1ea9u", "title": "Mizuna", "lat": "10.7722964", "lng": "106.67026659999999", "address": "93 Tr\u1ea7n Thi\u1ec7n Ch\u00e1nh, Ph\u01b0\u1eddng 12, Ho Chi Minh, Vietnam", "id": 86}, {"images": "/img/shop/ubcc.pd.point/87/logo_shops/64x64", "domain": "sacdep.ubcc.io", "description": "Chuy\u00ean cung c\u1ea5p c\u00e1c d\u00f2ng m\u1ef9 ph\u1ea9m l\u00e0m \u0111\u1eb9p c\u00f3 th\u01b0\u01a1ng hi\u1ec7u ...nh\u1eb1m n\u1ed5 l\u1ef1c mang c\u00e1i \u0111\u1eb9p \u0111\u1ebfn v\u1edbi t\u1ea5t c\u1ea3 ph\u1ee5 n\u1eef Vi\u1ec7t.", "title": "CTY SAC DEP VIET", "lat": "10.774747 ", "lng": "106.70345099999997 ", "address": "68 Nguy\u1ec5n Hu\u1ec7, B\u1ebfn Ngh\u00e9, Ho Chi Minh City, Ho Chi Minh, Vietnam", "id": 87}, {"images": "/img/shop/ubcc.pd.point/90/logo_shops/64x64", "domain": "thucpham.ubcc.io", "description": "Thucphamsach", "title": "G\u1ea1o s\u1ea1ch, t\u00f4m kh\u00f4, kh\u00f4 m\u1ef1c", "lat": "10.7626737", "lng": "106.60990360000005", "address": "109/35 B\u00ecnh Tr\u1ecb \u0110\u00f4ng, H\u1ed3 Ch\u00ed Minh, B\u00ecnh T\u00e2n, Vi\u1ec7t Nam", "id": 90}, {"images": "/img/shop/ubcc.pd.point/92/logo_shops/64x64", "domain": "depxinh.ubcc.io", "description": "chuy\u00ean cung c\u1ea5p nh\u1eefng sp v\u1ec1 th\u01a1\u0300i trang,s\u1ee9c kh\u1ecfe v\u00e0 s\u1eafc \u0111\u1eb9p - 0931327231 va\u0300 0908685968 (zalo) - FB M\u00f4\u0323ngtrinh", "title": "trinhnguyen", "lat": "10.8753436 ", "lng": "106.64584809999997 ", "address": "26 Hi\u1ec7p Th\u00e0nh 31, ph\u01b0\u1eddng Hi\u1ec7p Th\u00e0nh, Ho Chi Minh, Qu\u1eadn 12, Vietnam", "id": 92}, {"images": "/img/shop/ubcc.pd.point/93/logo_shops/64x64", "domain": "hoanglam.ubcc.io", "description": "chuy\u00ean cung c\u1ea5p s\u1eefa non ALPHA LIPID LIFELINE. s\u0129 v\u00e0 l\u1ebd 687/7 KINH D\u01af\u01a0NG V\u01af\u01a0NG T\u00c2N B\u00ccNH H\u1ed2 CH\u00cd MINH ;0868 107 002", "title": "HO\u00c0NG L\u00c2M, NH\u00c0 PH\u00c2N PH\u1ed0I S\u1eeeA NON", "lat": "10.7480734 ", "lng": "106.62686310000004 ", "address": "687/7 Kinh D\u01b0\u01a1ng V\u01b0\u01a1ng,binh tan H\u1ed3 Ch\u00ed Minh, Vi\u1ec7t Nam", "id": 93}, {"images": "/img/shop/ubcc.pd.point/94/logo_shops/64x64", "domain": "gloryvietnam.ubcc.io", "description": "chuy\u00ean cung c\u1ea5p m\u1eadt ong r\u1eebng nguy\u00ean ch\u1ea5t, \u0111\u01b0\u1ee3c l\u1ea5y t\u1eeb r\u1eebng u minh", "title": "M\u1eacT ONG R\u1eeaNG U MINH", "lat": "10.0272537 ", "lng": "105.76980389999994 ", "address": "Ninh Ki\u1ec1u, Can Tho, Vietnam", "id": 94}, {"images": "/img/shop/ubcc.pd.point/95/logo_shops/64x64", "domain": "hongthu.ubcc.io", "description": "XE DU L\u1ecaCH 7 CH\u1ed6. NH\u1eacN \u0110\u01afA \u0110\u00d3N,THAM QUAN DU L\u1ecaCH.li\u00ean h\u1ec7: 0903 703 038 { anh PHONG}", "title": "D\u1ecaCH V\u1ee4 XE DU L\u1ecaCH", "lat": "10.8468834", "lng": "106.67670969999995", "address": "Chung C\u01b0 An L\u1ed9c, \u0110\u01b0\u1eddng s\u1ed1 7, Ho Chi Minh City, Ho Chi Minh, Vietnam", "id": 95}, {"images": "/img/shop/ubcc.pd.point/96/logo_shops/64x64", "domain": "myphuong.ubcc.io", "description": "CHUY\u00caN B\u00c1N V\u00c9 M\u00c1Y BAY GI\u00c1 R\u1eba & CUNG C\u1ea4P S\u1ec8 V\u00c0 L\u1eba M\u1eacT ONG NGUY\u00caN CH\u1ea4T . MOBI : 0961844944 - 0911701329", "title": "\u0110\u1ea0I L\u00dd V\u00c9 M\u00c1Y BAY HO\u00c0NG V\u0168 - M\u1eacT ONG R\u1eeaNG NGUY\u00caN CH\u1ea4T", "lat": "16.0529143 ", "lng": "108.21821150000005 ", "address": "260 Tr\u01b0ng N\u1eef V\u01b0\u01a1ng, H\u00f2a Thu\u1eadn \u0110\u00f4ng, Da Nang, Vietnam", "id": 96}, {"images": "/img/shop/ubcc.pd.point/97/logo_shops/64x64", "domain": "inanthietke.ubcc.io", "description": "In offset : Catalogue - Namecard - Th\u1ebb PVC - Th\u1ebb VIP - Thi\u1ec7p c\u01b0\u1edbi - Menu.\r\nIn Hiflex - KTS. T\u01b0 v\u1ea5n v\u00e0 thi\u1ebft k\u1ebf WEBSITE..", "title": "D\u1ecaCH V\u1ee4 THI\u1ebeT K\u1ebe - IN \u1ea4N T\u1ed4NG H\u1ee2P H\u1ed2NG", "lat": "10.7672651 ", "lng": "106.67634220000002 ", "address": "272 L\u00fd Th\u00e1i T\u1ed5, Ho Chi Minh City, Ho Chi Minh, Vietnam", "id": 97}, {"images": "/img/shop/ubcc.pd.point/101/logo_shops/64x64", "domain": "nguyenstore.ubcc.io", "description": "chuy\u00ean cung c\u1ea5p n\u01b0\u1edbc hoa chi\u1ebfc \u0111\u1ebfn t\u1eeb Ph\u00e1p s\u1ec9 v\u00e0 l\u1ebb. li\u00ean h\u1ec7 mr Nguy\u1ec5n 0888882333.", "title": "NGUY\u1ec4N STORE", "lat": "10.1603837 ", "lng": "105.94061280000005 ", "address": "Ho\u00e0 Ph\u00fa, Long H\u1ed3, Vinh Long, Vietnam", "id": 101}, {"images": "/img/shop/ubcc.pd.point/103/logo_shops/64x64", "domain": "doinothue.ubcc.io", "description": "ch\u00fang t\u00f4i chuy\u00ean cung c\u1ea5p d\u1ecbch v\u1ee5 uy t\u00edn ch\u1ea5t l\u01b0\u1ee3ng.li\u00ean h\u1ec7 ;0907842599", "title": "\u0110\u00d2I N\u1ee2 THU\u00ca \u0110\u00d4NG D\u01af\u01a0NG", "lat": "10.8155776 ", "lng": "106.62489920000007 ", "address": "10 T\u00e2y Th\u1ea1nh, ph\u01b0\u1eddng T\u00e2y Th\u1ea1nh, Ho Chi Minh City, Ho Chi Minh, Vietnam", "id": 103}, {"images": "/img/shop/ubcc.pd.point/104/logo_shops/64x64", "domain": "uyenvu.ubcc.io", "description": "chuyen mua ban my pham", "title": "my pham uyen vu", "lat": "13.9680042", "lng": "108.04282650000005", "address": "39 Anh H\u00f9ng \u0110\u00f4n, Pleiku, Gia Lai Province, Vietnam", "id": 104}, {"images": "/img/shop/ubcc.pd.point/105/logo_shops/64x64", "domain": "thietkecanhquansanvuon.ubcc.io", "description": "Thi\u1ebft k\u1ebf thi c\u00f4ng s\u00e2n v\u01b0\u1eddn, trang tr\u00ed n\u1ed9i th\u1ea5t, \u0111i\u00eau kh\u1eafc m\u1ef9 thu\u1eadt", "title": "\u0110\u00f4ng Vi\u00ean Garden", "lat": "10.857025245060978 ", "lng": "106.65387600660324 ", "address": "124/1394 L\u00ea \u0110\u1ee9c Th\u1ecd, Ph\u01b0\u1eddng 13, G\u00f2 V\u1ea5p, H\u1ed3 Ch\u00ed Minh, Vi\u1ec7t Nam", "id": 105}]